city,lat,lng,country,iso2,admin_name,capital,population,population_proper
Athens,37.9842,23.7281,Greece,GR,Attikí,primary,664046,664046
Thessaloníki,40.6403,22.9356,Greece,GR,Kentrikí Makedonía,admin,315196,315196
Pátra,38.2500,21.7333,Greece,GR,Dytikí Elláda,admin,167446,167446
Piraeus,37.9430,23.6469,Greece,GR,Attikí,minor,163688,163688
Lárisa,39.6369,22.4176,Greece,GR,Thessalía,admin,144651,144651
Irákleio,35.3403,25.1344,Greece,GR,Kríti,admin,140730,140730
Peristéri,38.0167,23.6833,Greece,GR,Attikí,minor,139981,139981
Kallithéa,37.9500,23.7000,Greece,GR,Attikí,minor,100641,100641
Níkaia,37.9667,23.6333,Greece,GR,Attikí,minor,89380,89380
Glyfáda,37.8800,23.7533,Greece,GR,Attikí,minor,87305,87305
Vólos,39.3611,22.9425,Greece,GR,Thessalía,minor,86046,86046
Chaniá,35.5173,24.0195,Greece,GR,Kríti,minor,78728,54565
Chalándri,38.0167,23.8000,Greece,GR,Attikí,minor,74192,74192
Kalamáta,37.0389,22.1142,Greece,GR,Peloponnísos,minor,71823,51108
Néa Ionía,38.0333,23.7500,Greece,GR,Attikí,minor,67134,67134
Ioánnina,39.6636,20.8522,Greece,GR,Ípeiros,admin,65574,65574
Palaió Fáliro,37.9320,23.7003,Greece,GR,Attikí,minor,64021,64021
Tríkala,39.5550,21.7683,Greece,GR,Thessalía,minor,61653,61653
Výronas,37.9556,23.7600,Greece,GR,Attikí,minor,61308,61308
Agía Paraskeví,38.0053,23.8208,Greece,GR,Attikí,minor,59704,59704
Galátsi,38.0167,23.7500,Greece,GR,Attikí,minor,59345,59345
Kavála,40.9350,24.4150,Greece,GR,Anatolikí Makedonía kai Thráki,minor,59240,52950
Chalkída,38.4625,23.5950,Greece,GR,Stereá Elláda,minor,59125,59125
Sérres,41.0833,23.5500,Greece,GR,Kentrikí Makedonía,minor,58287,58287
Alexandroúpoli,40.8500,25.8667,Greece,GR,Anatolikí Makedonía kai Thráki,minor,57812,57812
Ródos,36.4412,28.2225,Greece,GR,Notío Aigaío,minor,56969,56128
Xánthi,41.1333,24.8833,Greece,GR,Anatolikí Makedonía kai Thráki,minor,56122,56122
Kateríni,40.2667,22.5000,Greece,GR,Kentrikí Makedonía,minor,55997,55997
Lamía,38.8972,22.4311,Greece,GR,Stereá Elláda,admin,52006,52006
Komotiní,41.1167,25.4000,Greece,GR,Anatolikí Makedonía kai Thráki,admin,50990,50990
Agrínio,38.6167,21.4000,Greece,GR,Dytikí Elláda,minor,46899,46899
Chaïdári,38.0167,23.6500,Greece,GR,Attikí,minor,45642,45642
Dráma,41.1514,24.1392,Greece,GR,Anatolikí Makedonía kai Thráki,minor,44823,44823
Véroia,40.5203,22.2019,Greece,GR,Kentrikí Makedonía,minor,43158,43158
Kozáni,40.3007,21.7890,Greece,GR,Dytikí Makedonía,admin,41066,41066
Kardítsa,39.3647,21.9219,Greece,GR,Thessalía,minor,38554,38554
Réthymno,35.3689,24.4739,Greece,GR,Kríti,minor,32468,32468
Trípoli,37.5083,22.3750,Greece,GR,Peloponnísos,admin,30866,30866
Vrilíssia,38.0391,23.8378,Greece,GR,Attikí,minor,30741,30741
Kórinthos,37.9333,22.9333,Greece,GR,Peloponnísos,minor,30176,30176
Giannitsá,40.7962,22.4145,Greece,GR,Kentrikí Makedonía,minor,29789,29789
Mytilíni,39.1114,26.5621,Greece,GR,Voreío Aigaío,admin,29328,28322
Chíos,38.3725,26.1375,Greece,GR,Voreío Aigaío,minor,26850,26850
Kaisarianí,37.9633,23.7653,Greece,GR,Attikí,minor,26370,26370
Néa Filadélfeia,38.0350,23.7381,Greece,GR,Attikí,minor,25734,25734
Salamína,37.9333,23.5000,Greece,GR,Attikí,minor,25370,25370
Elefsína,38.0414,23.5453,Greece,GR,Attikí,minor,24910,24910
Kérkyra,39.6239,19.9214,Greece,GR,Ionía Nísia,admin,24838,24838
Pýrgos,37.6667,21.4333,Greece,GR,Dytikí Elláda,minor,24359,24359
Mégara,38.0000,23.3333,Greece,GR,Attikí,minor,23456,23456
Kilkís,40.9954,22.8765,Greece,GR,Kentrikí Makedonía,minor,22914,22914
Thebes,38.3242,23.3236,Greece,GR,Stereá Elláda,minor,22883,22883
Lefkáda,38.7178,20.6439,Greece,GR,Ionía Nísia,minor,22652,22652
Áno Sýros,37.4500,24.9000,Greece,GR,Notío Aigaío,minor,21507,21507
Péfki,38.0667,23.8000,Greece,GR,Attikí,minor,21415,21415
Livadeiá,38.4361,22.8750,Greece,GR,Stereá Elláda,minor,21379,21379
Kos,36.8153,27.1103,Greece,GR,Notío Aigaío,minor,19244,18691
Préveza,38.9500,20.7500,Greece,GR,Ípeiros,minor,19042,19042
Orestiáda,41.5000,26.5333,Greece,GR,Anatolikí Makedonía kai Thráki,minor,18426,18426
Spárti,37.0819,22.4236,Greece,GR,Peloponnísos,minor,16187,15497
Thérmi,40.5472,23.0197,Greece,GR,Kentrikí Makedonía,minor,16004,16004
Alexándreia,40.6283,22.4454,Greece,GR,Kentrikí Makedonía,minor,14821,14821
Paianía,37.9500,23.8500,Greece,GR,Attikí,minor,14595,14595
Náfplio,37.5667,22.8000,Greece,GR,Peloponnísos,minor,14203,14203
Náfpaktos,38.3917,21.8275,Greece,GR,Dytikí Elláda,minor,13415,13415
Kastoriá,40.5181,21.2688,Greece,GR,Dytikí Makedonía,minor,13387,13387
Néa Alikarnassós,35.3286,25.1644,Greece,GR,Kríti,,12925,12925
Kálymnos,36.9512,26.9832,Greece,GR,Notío Aigaío,minor,12324,12324
Ermoúpoli,37.4504,24.9333,Greece,GR,Notío Aigaío,admin,12260,12260
Týrnavos,39.7353,22.2869,Greece,GR,Thessalía,minor,11069,11069
Diavatá,40.6883,22.8583,Greece,GR,Kentrikí Makedonía,,9890,9890
Kiáto,38.0117,22.7467,Greece,GR,Peloponnísos,minor,9812,9812
Anatolí,39.6386,20.8661,Greece,GR,Ípeiros,,9798,9798
Argostóli,38.1739,20.4883,Greece,GR,Ionía Nísia,minor,9748,9748
Lykóvrysi,38.0667,23.7833,Greece,GR,Attikí,,9738,9738
Pórto Ráfti,37.8844,24.0125,Greece,GR,Attikí,,9686,9686
Psychikó,38.0180,23.7804,Greece,GR,Attikí,minor,9529,9529
Néa Artáki,38.5167,23.6333,Greece,GR,Stereá Elláda,,9489,9489
Zefýri,38.0667,23.7167,Greece,GR,Attikí,,9454,9454
Siteía,35.2000,26.1000,Greece,GR,Kríti,minor,9348,9348
Néa Moudaniá,40.2386,23.2814,Greece,GR,Kentrikí Makedonía,minor,9342,9342
Fársala,39.2833,22.3833,Greece,GR,Thessalía,minor,9298,9298
Síndos,40.6667,22.8000,Greece,GR,Kentrikí Makedonía,minor,9289,9289
Didymóteicho,41.3500,26.5000,Greece,GR,Anatolikí Makedonía kai Thráki,minor,9263,9263
Spáta,37.9667,23.9167,Greece,GR,Attikí,minor,9198,9198
Epanomí,40.4261,22.9281,Greece,GR,Kentrikí Makedonía,,8979,8979
Chrysoúpoli,40.9833,24.7000,Greece,GR,Anatolikí Makedonía kai Thráki,minor,8885,8885
Néa Péramos,38.0000,23.4167,Greece,GR,Attikí,,8333,8333
Kalampáka,39.7044,21.6269,Greece,GR,Thessalía,minor,8330,8330
Almyrós,39.1803,22.7606,Greece,GR,Thessalía,minor,7955,7955
Koufália,40.7792,22.5767,Greece,GR,Kentrikí Makedonía,minor,7850,7850
Giánnouli,39.6672,22.3958,Greece,GR,Thessalía,,7847,7847
Lagkadás,40.7500,23.0667,Greece,GR,Kentrikí Makedonía,minor,7764,7764
Mourniés,35.4850,24.0130,Greece,GR,Kríti,,7553,7553
Elassóna,39.8947,22.1886,Greece,GR,Thessalía,minor,7338,7338
Chalástra,40.6267,22.7322,Greece,GR,Kentrikí Makedonía,,7270,7270
Néa Kallikráteia,40.3139,23.0633,Greece,GR,Kentrikí Makedonía,,7238,7238
Karpenísi,38.9203,21.7833,Greece,GR,Stereá Elláda,minor,7183,7183
Marathónas,38.1550,23.9636,Greece,GR,Attikí,minor,7170,7170
Lávrio,37.7000,24.0500,Greece,GR,Attikí,minor,7078,7078
Polýkastro,40.9954,22.5714,Greece,GR,Kentrikí Makedonía,minor,7064,7064
Litóchoro,40.1028,22.5069,Greece,GR,Kentrikí Makedonía,minor,6995,6995
Aígina,37.7467,23.4275,Greece,GR,Attikí,minor,6867,6867
Néo Karlovási,37.7917,26.7051,Greece,GR,Voreío Aigaío,,6708,6708
Káto Achaḯa,38.1500,21.5500,Greece,GR,Dytikí Elláda,minor,6618,6618
Aridaía,40.9750,22.0583,Greece,GR,Kentrikí Makedonía,minor,6561,6561
Soúda,35.4833,24.0667,Greece,GR,Kríti,,6358,6358
Kounoupidianá,35.5360,24.0760,Greece,GR,Kríti,,6334,6334
Anávyssos,37.7333,23.9500,Greece,GR,Attikí,,6202,6202
Polýgyros,40.3783,23.4453,Greece,GR,Kentrikí Makedonía,minor,6121,6121
Messíni,37.0500,22.0000,Greece,GR,Peloponnísos,minor,6065,6065
Néoi Epivátes,40.5010,22.9090,Greece,GR,Kentrikí Makedonía,,5984,5984
Filiatrá,37.1572,21.5858,Greece,GR,Peloponnísos,,5969,5969
Psachná,38.5828,23.6328,Greece,GR,Stereá Elláda,minor,5827,5827
Megalópoli,37.4000,22.1333,Greece,GR,Peloponnísos,minor,5748,5748
Mýrina,39.8797,25.0742,Greece,GR,Voreío Aigaío,minor,5711,5711
Diónysos,38.1000,23.8667,Greece,GR,Attikí,,5651,5651
Nerokoúros,35.4758,24.0383,Greece,GR,Kríti,,5531,5531
Xylókastro,38.0667,22.6333,Greece,GR,Peloponnísos,minor,5500,5500
Fílyro,40.6911,23.0042,Greece,GR,Kentrikí Makedonía,,5495,5495
Siátista,40.2564,21.5522,Greece,GR,Dytikí Makedonía,minor,5490,5490
Féres,40.8933,26.1739,Greece,GR,Anatolikí Makedonía kai Thráki,,5457,5457
Skýdra,40.7667,22.1500,Greece,GR,Kentrikí Makedonía,minor,5406,5406
Archángelos,36.2167,28.1167,Greece,GR,Notío Aigaío,,5384,5384
Kremastí,36.4105,28.1191,Greece,GR,Notío Aigaío,,5363,5363
Vrontádos,38.4167,26.1333,Greece,GR,Voreío Aigaío,,5323,5323
Tympáki,35.0719,24.7683,Greece,GR,Kríti,,5285,5285
Orchomenós,38.4933,22.9749,Greece,GR,Stereá Elláda,minor,5238,5238
Agriá,39.3400,23.0133,Greece,GR,Thessalía,,5191,5191
Néa Anchiálos,39.2667,22.8167,Greece,GR,Thessalía,,5132,5132
Kyparissía,37.2333,21.6667,Greece,GR,Peloponnísos,minor,5131,5131
Gargaliánoi,37.0667,21.6333,Greece,GR,Peloponnísos,,5007,5007
Nigríta,40.9133,23.5014,Greece,GR,Kentrikí Makedonía,minor,4947,4947
Skiáthos,39.1652,23.4895,Greece,GR,Thessalía,minor,4883,4883
Chortiátis,40.6083,23.1028,Greece,GR,Kentrikí Makedonía,,4873,4873
Alivéri,38.4083,24.0417,Greece,GR,Stereá Elláda,minor,4827,4827
Tínos,37.5377,25.1611,Greece,GR,Notío Aigaío,minor,4762,4762
Magoúla,38.0833,23.5167,Greece,GR,Attikí,,4735,4735
Stafidókampos,37.8933,21.2933,Greece,GR,Dytikí Elláda,,4716,4716
Ampelákia,37.9500,23.5167,Greece,GR,Attikí,,4710,4710
Vónitsa,38.9153,20.8911,Greece,GR,Dytikí Elláda,minor,4703,4703
Filippiáda,39.2028,20.8842,Greece,GR,Ípeiros,minor,4619,4619
Alíartos,38.3667,23.1000,Greece,GR,Stereá Elláda,minor,4402,4402
Zevgolatió,37.9333,22.8000,Greece,GR,Peloponnísos,,4363,4363
Itéa,38.4333,22.4333,Greece,GR,Stereá Elláda,,4362,4362
Istiaía,38.9500,23.1500,Greece,GR,Stereá Elláda,minor,4339,4339
Arkalochóri,35.1500,25.2667,Greece,GR,Kríti,,4313,4313
Gýtheio,36.7617,22.5661,Greece,GR,Peloponnísos,minor,4279,4279
Néa Magnisía,40.6878,22.8458,Greece,GR,Kentrikí Makedonía,,4266,4266
Kíssamos,35.4833,23.6500,Greece,GR,Kríti,minor,4236,4236
Vouliagméni,37.8000,23.7833,Greece,GR,Attikí,,4180,4180
Aigínio,40.5022,22.5422,Greece,GR,Kentrikí Makedonía,minor,4153,4153
Kítsi,37.8456,23.8267,Greece,GR,Attikí,,4091,4091
Schimatári,38.3500,23.5833,Greece,GR,Stereá Elláda,minor,4035,4035
Aitolikó,38.4369,21.3536,Greece,GR,Dytikí Elláda,,4012,4012
Kranídi,37.3750,23.1583,Greece,GR,Peloponnísos,minor,4006,4006
Spétses,37.2591,23.1364,Greece,GR,Attikí,minor,4001,4001
Andravída,37.9058,21.2667,Greece,GR,Dytikí Elláda,,3981,3981
Katsikás,39.6228,20.8875,Greece,GR,Ípeiros,,3885,3885
Néa Raidestós,40.5239,23.0508,Greece,GR,Kentrikí Makedonía,,3869,3869
Neméa,37.8167,22.6667,Greece,GR,Peloponnísos,minor,3853,3853
Potamós,39.6239,19.8792,Greece,GR,Ionía Nísia,,3840,3840
Souflí,41.1942,26.3023,Greece,GR,Anatolikí Makedonía kai Thráki,minor,3837,3837
Amfilochía,38.8592,21.1758,Greece,GR,Dytikí Elláda,minor,3827,3827
Mýkonos,37.4453,25.3287,Greece,GR,Notío Aigaío,minor,3783,3783
Vasiliká,40.4800,23.1367,Greece,GR,Kentrikí Makedonía,,3762,3762
Leonídio,37.1667,22.8500,Greece,GR,Peloponnísos,minor,3761,3761
Lixoúri,38.2000,20.4333,Greece,GR,Ionía Nísia,,3752,3752
Leptokaryá,40.0603,22.5612,Greece,GR,Kentrikí Makedonía,,3700,3700
Stavrós,40.6642,23.6961,Greece,GR,Kentrikí Makedonía,minor,3672,3672
Amýntaio,40.6897,21.6797,Greece,GR,Dytikí Makedonía,minor,3671,3671
Kimméria,41.1475,24.9388,Greece,GR,Anatolikí Makedonía kai Thráki,,3644,3644
Gouménissa,40.9481,22.4519,Greece,GR,Kentrikí Makedonía,,3609,3609
Vartholomió,37.8622,21.2058,Greece,GR,Dytikí Elláda,,3603,3603
Lagyná,40.7233,23.0050,Greece,GR,Kentrikí Makedonía,,3591,3591
Prosotsáni,41.1786,23.9722,Greece,GR,Anatolikí Makedonía kai Thráki,minor,3553,3553
Néa Péramos,40.8389,24.3036,Greece,GR,Anatolikí Makedonía kai Thráki,,3514,3514
Korinós,40.3167,22.5833,Greece,GR,Kentrikí Makedonía,,3487,3487
Krinídes,41.0131,24.2950,Greece,GR,Anatolikí Makedonía kai Thráki,,3365,3365
Velventós,40.2547,22.0742,Greece,GR,Dytikí Makedonía,,3360,3360
Kapandríti,38.2167,23.8833,Greece,GR,Attikí,,3359,3359
Sápes,41.0333,25.7000,Greece,GR,Anatolikí Makedonía kai Thráki,minor,3351,3351
Vracháti,37.9500,22.8000,Greece,GR,Peloponnísos,,3338,3338
Lití,40.7447,22.9781,Greece,GR,Kentrikí Makedonía,,3302,3302
Ierissós,40.3983,23.8783,Greece,GR,Kentrikí Makedonía,minor,3266,3266
Thásos,40.7781,24.7094,Greece,GR,Anatolikí Makedonía kai Thráki,minor,3234,3234
Itháki,38.4167,20.6667,Greece,GR,Ionía Nísia,minor,3231,3231
Mália,35.2836,25.4625,Greece,GR,Kríti,,3224,3224
Néos Marmarás,40.0967,23.7831,Greece,GR,Kentrikí Makedonía,,3158,3158
Zacháro,37.4861,21.6494,Greece,GR,Dytikí Elláda,minor,3145,3145
Kallithéa,40.2750,22.5750,Greece,GR,Kentrikí Makedonía,,3134,3134
Melíki,40.5167,22.4000,Greece,GR,Kentrikí Makedonía,,3116,3116
Kalampáki,41.0500,24.1833,Greece,GR,Anatolikí Makedonía kai Thráki,minor,3110,3110
Néa Tríglia,40.3061,23.2086,Greece,GR,Kentrikí Makedonía,,3102,3102
Sochós,40.8164,23.3542,Greece,GR,Kentrikí Makedonía,,3094,3094
Skópelos,39.1167,23.7167,Greece,GR,Thessalía,minor,3090,3090
Skála,36.8525,22.6661,Greece,GR,Peloponnísos,minor,3067,3067
Ntráfi,38.0333,23.9000,Greece,GR,Attikí,,3055,3055
Maniákoi,40.5019,21.2447,Greece,GR,Dytikí Makedonía,,3055,3055
Néa Mesimvría,40.7517,22.7692,Greece,GR,Kentrikí Makedonía,,3050,3050
Velestíno,39.3817,22.7450,Greece,GR,Thessalía,minor,3044,3044
Plomári,38.9833,26.3667,Greece,GR,Voreío Aigaío,,2996,2996
Ormýlia,40.2944,23.5433,Greece,GR,Kentrikí Makedonía,,2979,2979
Néo Rýsi,40.4961,22.9881,Greece,GR,Kentrikí Makedonía,,2952,2952
Kónitsa,40.0417,20.7450,Greece,GR,Ípeiros,minor,2942,2942
Lefkímmi,39.4167,20.0667,Greece,GR,Ionía Nísia,,2935,2935
Panaitólio,38.5833,21.4461,Greece,GR,Dytikí Elláda,,2935,2935
Saronída,37.7333,23.9000,Greece,GR,Attikí,,2932,2932
Axioúpoli,40.9858,22.5417,Greece,GR,Kentrikí Makedonía,,2897,2897
Erythrés,38.2167,23.3167,Greece,GR,Attikí,,2862,2862
Asproválta,40.7247,23.7056,Greece,GR,Kentrikí Makedonía,,2838,2838
Katochí,38.4142,21.2542,Greece,GR,Dytikí Elláda,,2829,2829
Neochóri,38.4083,21.2750,Greece,GR,Dytikí Elláda,,2827,2827
Kolindrós,40.4783,22.4861,Greece,GR,Kentrikí Makedonía,,2822,2822
Néa Výssa,41.5833,26.5333,Greece,GR,Anatolikí Makedonía kai Thráki,,2805,2805
Néa Kíos,37.5875,22.7444,Greece,GR,Peloponnísos,,2778,2778
Kassándreia,40.0467,23.4161,Greece,GR,Kentrikí Makedonía,minor,2775,2775
Kaména Voúrla,38.7833,22.7833,Greece,GR,Stereá Elláda,minor,2761,2761
Choristí,41.1300,24.2083,Greece,GR,Anatolikí Makedonía kai Thráki,,2725,2725
Néa Palátia,38.3167,23.7833,Greece,GR,Attikí,,2723,2723
Palaiá Fókaia,37.7167,23.9500,Greece,GR,Attikí,,2713,2713
Níkiti,40.2228,23.6686,Greece,GR,Kentrikí Makedonía,minor,2711,2711
Kárpathos,35.5075,27.2136,Greece,GR,Notío Aigaío,minor,2707,2707
Astakós,38.5333,21.0833,Greece,GR,Dytikí Elláda,minor,2696,2696
Spercheiáda,38.9167,22.1333,Greece,GR,Stereá Elláda,minor,2691,2691
Pálairos,38.7809,20.8785,Greece,GR,Dytikí Elláda,,2664,2664
Aráchova,38.4789,22.5867,Greece,GR,Stereá Elláda,,2657,2657
Lechainá,37.9333,21.2667,Greece,GR,Dytikí Elláda,minor,2641,2641
Sými,36.5989,27.8342,Greece,GR,Notío Aigaío,minor,2590,2590
Anatolikó,40.6631,22.7114,Greece,GR,Kentrikí Makedonía,,2589,2589
Kéntavros,41.2300,24.9500,Greece,GR,Anatolikí Makedonía kai Thráki,,2580,2580
Vrachnaíika,38.1669,21.6669,Greece,GR,Dytikí Elláda,,2571,2571
Rododáfni,38.2697,22.0489,Greece,GR,Dytikí Elláda,,2564,2564
Loutrá Aidipsoú,38.8556,23.0464,Greece,GR,Stereá Elláda,,2560,2560
Livanátes,38.7500,23.0333,Greece,GR,Stereá Elláda,,2559,2559
Markópoulo,38.2897,23.8247,Greece,GR,Attikí,,2549,2549
Galátista,40.4672,23.2806,Greece,GR,Kentrikí Makedonía,,2537,2537
Moláoi,36.8042,22.8547,Greece,GR,Peloponnísos,minor,2534,2534
Kanaláki,39.2325,20.5986,Greece,GR,Ípeiros,minor,2513,2513
Filiátes,39.6011,20.3119,Greece,GR,Ípeiros,minor,2512,2512
Ermióni,37.3833,23.2500,Greece,GR,Peloponnísos,,2505,2505
Métsovo,39.7703,21.1839,Greece,GR,Ípeiros,minor,2503,2503
Echínos,41.2758,24.9725,Greece,GR,Anatolikí Makedonía kai Thráki,,2486,2486
Ligourió,37.6144,23.0361,Greece,GR,Peloponnísos,,2482,2482
Limenária,40.6278,24.5767,Greece,GR,Anatolikí Makedonía kai Thráki,,2471,2471
Gónnoi,39.8611,22.4761,Greece,GR,Thessalía,,2462,2462
Néa Málgara,40.6097,22.6819,Greece,GR,Kentrikí Makedonía,,2404,2404
Pélla,40.7617,22.5264,Greece,GR,Kentrikí Makedonía,,2398,2398
Lefkónas,41.0983,23.4961,Greece,GR,Kentrikí Makedonía,,2388,2388
Kými,38.6343,24.1038,Greece,GR,Stereá Elláda,,2383,2383
Paramythiá,39.4667,20.5000,Greece,GR,Ípeiros,minor,2363,2363
Pýlos,36.9000,21.6833,Greece,GR,Peloponnísos,minor,2345,2345
Agiásos,39.0833,26.3711,Greece,GR,Voreío Aigaío,,2320,2320
Tycheró,41.0289,26.2944,Greece,GR,Anatolikí Makedonía kai Thráki,,2311,2311
Arnaía,40.4867,23.5947,Greece,GR,Kentrikí Makedonía,,2300,2300
Várda,38.0306,21.3650,Greece,GR,Dytikí Elláda,,2291,2291
Dimíni,39.3547,22.8892,Greece,GR,Thessalía,,2261,2261
Makrakómi,38.9333,22.1167,Greece,GR,Stereá Elláda,,2245,2245
Livádi,40.1333,22.1500,Greece,GR,Thessalía,,2244,2244
Nikísiani,40.9489,24.1417,Greece,GR,Anatolikí Makedonía kai Thráki,,2236,2236
Ágios Kírykos,37.6114,26.2931,Greece,GR,Voreío Aigaío,minor,2218,2218
Galatás,37.4967,23.4475,Greece,GR,Attikí,minor,2195,2195
Kyriáki,38.3500,22.7833,Greece,GR,Stereá Elláda,,2185,2185
Zagklivéri,40.5719,23.2889,Greece,GR,Kentrikí Makedonía,,2171,2171
Terpní,40.9167,23.4833,Greece,GR,Kentrikí Makedonía,,2169,2169
Néa Karváli,40.9606,24.5106,Greece,GR,Anatolikí Makedonía kai Thráki,,2160,2160
Káto Nevrokópi,41.3439,23.8667,Greece,GR,Anatolikí Makedonía kai Thráki,minor,2157,2157
Káto Goúves,35.3300,25.3119,Greece,GR,Kríti,,2153,2153
Anthoúsa,38.0333,23.8667,Greece,GR,Attikí,,2132,2132
Alistráti,41.0633,23.9581,Greece,GR,Kentrikí Makedonía,,2127,2127
Mintilógli,38.1833,21.7000,Greece,GR,Dytikí Elláda,,2120,2120
Zarós,35.1333,24.9000,Greece,GR,Kríti,,2106,2106
Polichnítos,39.0790,26.1810,Greece,GR,Voreío Aigaío,,2102,2102
Mesopotamía,40.5000,21.1500,Greece,GR,Dytikí Makedonía,,2099,2099
Tagarádes,40.4889,23.0222,Greece,GR,Kentrikí Makedonía,,2088,2088
Párga,39.2833,20.4000,Greece,GR,Ípeiros,,2088,2088
Rodópoli,38.1000,23.8667,Greece,GR,Attikí,,2078,2078
Zagorá,39.4428,23.1017,Greece,GR,Thessalía,minor,2074,2074
Antimácheia,36.8125,27.0983,Greece,GR,Notío Aigaío,,2068,2068
Karditsomagoúla,39.3917,21.9233,Greece,GR,Thessalía,,2063,2063
Sélero,41.1333,25.0000,Greece,GR,Anatolikí Makedonía kai Thráki,,2059,2059
Tsarítsani,39.8820,22.2280,Greece,GR,Thessalía,,2040,2040
Karítsa,40.1875,22.4819,Greece,GR,Kentrikí Makedonía,,2025,2025
Galaxídi,38.3767,22.3836,Greece,GR,Stereá Elláda,,2011,2011
Pikérmi,38.0000,23.9333,Greece,GR,Attikí,,2009,2009
Néa Manoláda,38.0500,21.3833,Greece,GR,Dytikí Elláda,,2006,2006
Aianí,40.1647,21.8208,Greece,GR,Dytikí Makedonía,,2006,2006
Kalloní,39.2328,26.2069,Greece,GR,Voreío Aigaío,,1978,1978
Dílesi,38.3425,23.6728,Greece,GR,Stereá Elláda,,1976,1976
Svorónos,40.2667,22.4667,Greece,GR,Kentrikí Makedonía,,1948,1948
Emporeío,36.3583,25.4444,Greece,GR,Notío Aigaío,,1938,1938
Loúros,39.1667,20.7500,Greece,GR,Ípeiros,,1938,1938
Néos Skopós,41.0239,23.6108,Greece,GR,Kentrikí Makedonía,,1934,1934
Afídnes,38.2000,23.8333,Greece,GR,Attikí,,1908,1908
Vrontoú,40.1936,22.4319,Greece,GR,Kentrikí Makedonía,,1902,1902
Gaïtáni,37.7833,20.8667,Greece,GR,Ionía Nísia,,1899,1899
Sámos,37.7475,26.9825,Greece,GR,Voreío Aigaío,minor,1888,1888
Kréstena,37.5917,21.6200,Greece,GR,Dytikí Elláda,minor,1864,1864
Megála Kalývia,39.5000,21.7833,Greece,GR,Thessalía,,1849,1849
Mavrommáti,38.3278,23.1408,Greece,GR,Stereá Elláda,,1847,1847
Káto Tithoréa,38.6000,22.7167,Greece,GR,Stereá Elláda,minor,1841,1841
Athíkia,37.8167,22.9333,Greece,GR,Peloponnísos,,1834,1834
Kolchikó,40.7581,23.1347,Greece,GR,Kentrikí Makedonía,,1831,1831
Kálamos,38.2847,23.8637,Greece,GR,Attikí,,1824,1824
Desfína,38.4184,22.5287,Greece,GR,Stereá Elláda,,1824,1824
Pórto Chéli,37.3250,23.1420,Greece,GR,Peloponnísos,,1817,1817
Verdikoússa,39.7808,21.9764,Greece,GR,Thessalía,,1812,1812
Platýkampos,39.6217,22.5350,Greece,GR,Thessalía,,1804,1804
Galatiní,40.3197,21.5519,Greece,GR,Dytikí Makedonía,,1795,1795
Mantoúdi,38.7981,23.4797,Greece,GR,Stereá Elláda,,1787,1787
Prómachoi,41.0236,22.0081,Greece,GR,Kentrikí Makedonía,,1740,1740
Evropós,40.8975,22.5525,Greece,GR,Kentrikí Makedonía,,1734,1734
Makrísia,37.6167,21.6000,Greece,GR,Dytikí Elláda,,1718,1718
Thérmo,38.5736,21.6664,Greece,GR,Dytikí Elláda,minor,1716,1716
Petroússa,41.1944,24.0158,Greece,GR,Anatolikí Makedonía kai Thráki,,1704,1704
Chiliomódi,37.8139,22.8711,Greece,GR,Peloponnísos,,1699,1699
Néa Sánta,40.8428,22.9194,Greece,GR,Kentrikí Makedonía,,1693,1693
Katoúna,38.7853,21.1167,Greece,GR,Dytikí Elláda,,1677,1677
Kalávryta,38.0308,22.1086,Greece,GR,Dytikí Elláda,minor,1674,1674
Argyropoúli,39.8261,22.3081,Greece,GR,Thessalía,,1667,1667
Kontariótissa,40.2272,22.4594,Greece,GR,Kentrikí Makedonía,,1662,1662
Kontokáli,39.6460,19.8500,Greece,GR,Ionía Nísia,,1660,1660
Skýros,38.9064,24.5658,Greece,GR,Stereá Elláda,minor,1657,1657
Evinochóri,38.3594,21.5361,Greece,GR,Dytikí Elláda,,1651,1651
Kardámaina,36.7818,27.1419,Greece,GR,Notío Aigaío,,1650,1650
Límni,38.7700,23.3200,Greece,GR,Stereá Elláda,minor,1642,1642
Palaiá Epídavros,37.6379,23.1570,Greece,GR,Peloponnísos,,1618,1618
Perigiáli,37.9380,22.8360,Greece,GR,Peloponnísos,,1616,1616
Makrychóri,39.8000,22.4833,Greece,GR,Thessalía,minor,1615,1615
Ampelókipoi,37.7581,20.8725,Greece,GR,Ionía Nísia,,1606,1606
Néa Flogitá,40.2600,23.2200,Greece,GR,Kentrikí Makedonía,,1604,1604
Dístomo,38.4293,22.6673,Greece,GR,Stereá Elláda,minor,1589,1589
Vári,37.3906,24.9447,Greece,GR,Notío Aigaío,,1584,1584
Thymianá,38.3144,26.1325,Greece,GR,Voreío Aigaío,,1566,1566
Néa Éfesos,40.2297,22.5003,Greece,GR,Kentrikí Makedonía,,1564,1564
Néa Iraklítsa,40.8644,24.3167,Greece,GR,Anatolikí Makedonía kai Thráki,,1560,1560
Néa Poteídaia,40.1931,23.3279,Greece,GR,Kentrikí Makedonía,,1559,1559
Kompóti,39.1022,21.0837,Greece,GR,Ípeiros,,1544,1544
Domokós,39.1000,22.3333,Greece,GR,Stereá Elláda,minor,1531,1531
Gra Lygiá,35.0150,25.6922,Greece,GR,Kríti,,1528,1528
Lófos,40.2417,22.3833,Greece,GR,Kentrikí Makedonía,,1496,1496
Zygós,41.0167,24.3833,Greece,GR,Anatolikí Makedonía kai Thráki,,1485,1485
Filóti,37.0519,25.4983,Greece,GR,Notío Aigaío,,1477,1477
Pérdika,39.3667,20.3000,Greece,GR,Ípeiros,,1476,1476
Geniséa,41.0614,24.9624,Greece,GR,Anatolikí Makedonía kai Thráki,minor,1473,1473
Kokkinóchoma,40.9261,24.2983,Greece,GR,Anatolikí Makedonía kai Thráki,,1472,1472
Epitálio,37.6267,21.4933,Greece,GR,Dytikí Elláda,,1469,1469
Pyrgetós,39.9181,22.5956,Greece,GR,Thessalía,,1463,1463
Aigeíra,38.1456,22.3506,Greece,GR,Dytikí Elláda,,1462,1462
Toló,37.5205,22.8600,Greece,GR,Peloponnísos,,1460,1460
Antíkyra,38.3833,22.6333,Greece,GR,Stereá Elláda,,1448,1448
Kinéta,37.9717,23.2150,Greece,GR,Attikí,,1446,1446
Kastélli,35.2089,25.3378,Greece,GR,Kríti,minor,1438,1438
Keramotí,40.8556,24.6983,Greece,GR,Anatolikí Makedonía kai Thráki,,1438,1438
Grammatikó,38.2025,23.9650,Greece,GR,Attikí,,1432,1432
Skála Oropoú,38.3197,23.7875,Greece,GR,Attikí,,1430,1430
Profítis Ilías,35.2064,25.1000,Greece,GR,Kríti,,1429,1429
Kouvarás,37.8333,23.9667,Greece,GR,Attikí,,1426,1426
Magoúla,37.0667,22.4000,Greece,GR,Peloponnísos,,1415,1415
Koróni,36.7961,21.9581,Greece,GR,Peloponnísos,,1409,1409
Míthymna,39.3686,26.1806,Greece,GR,Voreío Aigaío,,1399,1399
Atsipópoulo,35.3527,24.4340,Greece,GR,Kríti,,1392,1392
Kírra,38.4334,22.4400,Greece,GR,Stereá Elláda,,1385,1385
Polydéndri,38.2167,23.8667,Greece,GR,Attikí,,1385,1385
Potamiá,40.7164,24.7283,Greece,GR,Anatolikí Makedonía kai Thráki,,1383,1383
Lárdos,36.0941,28.0166,Greece,GR,Notío Aigaío,,1380,1380
Damási,39.7125,22.1875,Greece,GR,Thessalía,,1380,1380
Perivóli,39.4208,20.0139,Greece,GR,Ionía Nísia,,1378,1378
Katastári,37.8278,20.7567,Greece,GR,Ionía Nísia,,1378,1378
Kalí,40.8177,22.1782,Greece,GR,Kentrikí Makedonía,,1378,1378
Thesprotikó,39.2497,20.7811,Greece,GR,Ípeiros,,1363,1363
Kamári,36.3741,25.4820,Greece,GR,Notío Aigaío,,1344,1344
Kýria,41.0985,24.2892,Greece,GR,Anatolikí Makedonía kai Thráki,,1330,1330
Varnávas,38.2236,23.9236,Greece,GR,Attikí,,1326,1326
Argalastí,39.2257,23.2197,Greece,GR,Thessalía,minor,1321,1321
Mýki,41.2447,24.9192,Greece,GR,Anatolikí Makedonía kai Thráki,,1313,1313
Meligalás,37.2167,21.9667,Greece,GR,Peloponnísos,minor,1296,1296
Kritsá,35.1567,25.6444,Greece,GR,Kríti,,1296,1296
Grizáno,39.6319,22.0525,Greece,GR,Thessalía,,1290,1290
Mavrochóri,40.5114,21.3208,Greece,GR,Dytikí Makedonía,,1287,1287
Kallífytos,41.1728,24.2153,Greece,GR,Anatolikí Makedonía kai Thráki,,1282,1282
Palaiokómi,40.8714,23.9017,Greece,GR,Kentrikí Makedonía,,1274,1274
Rízia,41.6219,26.4222,Greece,GR,Anatolikí Makedonía kai Thráki,,1272,1272
Vília,38.1667,23.3333,Greece,GR,Attikí,,1269,1269
Skarmagkás,38.0100,23.6000,Greece,GR,Attikí,,1255,1255
Kavásila,37.8750,21.2667,Greece,GR,Dytikí Elláda,,1252,1252
Aidipsós,38.8500,23.0333,Greece,GR,Stereá Elláda,,1249,1249
Zárkos,39.6078,22.1247,Greece,GR,Thessalía,,1247,1247
Gérgeri,35.1329,24.9499,Greece,GR,Kríti,,1241,1241
Karterádos,36.4133,25.4458,Greece,GR,Notío Aigaío,,1238,1238
Stalída,35.2914,25.4284,Greece,GR,Kríti,,1237,1237
Livaderó,40.0333,21.9425,Greece,GR,Dytikí Makedonía,,1232,1232
Dávleia,38.5167,22.7333,Greece,GR,Stereá Elláda,,1232,1232
Angelókastro,38.5667,21.3000,Greece,GR,Dytikí Elláda,,1220,1220
Fyteíes,38.6953,21.1858,Greece,GR,Dytikí Elláda,,1210,1210
Savália,37.8167,21.2833,Greece,GR,Dytikí Elláda,,1206,1206
Dafnés,35.2161,25.0503,Greece,GR,Kríti,,1204,1204
Amaxádes,41.1167,25.0667,Greece,GR,Anatolikí Makedonía kai Thráki,,1195,1195
Angelochórion,40.4970,22.8340,Greece,GR,Kentrikí Makedonía,,1178,1178
Próti,40.9442,24.0017,Greece,GR,Kentrikí Makedonía,,1176,1176
Kítros,40.3722,22.5789,Greece,GR,Kentrikí Makedonía,,1172,1172
Kampánis,40.8928,22.9153,Greece,GR,Kentrikí Makedonía,,1170,1170
Sylivainiótika,38.1614,22.3317,Greece,GR,Dytikí Elláda,,1165,1165
Lefkopigí,40.2310,21.7490,Greece,GR,Dytikí Makedonía,,1161,1161
Agía Tríada,37.6377,22.8041,Greece,GR,Peloponnísos,,1151,1151
Arrianá,41.0813,25.6949,Greece,GR,Anatolikí Makedonía kai Thráki,,1147,1147
Loutró Elénis,37.8660,22.9970,Greece,GR,Peloponnísos,,1145,1145
Perachóra,38.0314,22.9486,Greece,GR,Peloponnísos,,1141,1141
Myrsíni,37.9167,21.2333,Greece,GR,Dytikí Elláda,,1135,1135
Isthmía,37.9155,23.0073,Greece,GR,Peloponnísos,,1134,1134
Kalá Déndra,41.0994,23.4239,Greece,GR,Kentrikí Makedonía,,1131,1131
Díon,40.1719,22.4825,Greece,GR,Kentrikí Makedonía,,1130,1130
Chrysokellariá,36.7919,21.8894,Greece,GR,Peloponnísos,,1128,1128
Néa Plágia,40.2625,23.2028,Greece,GR,Kentrikí Makedonía,,1127,1127
Polýdrosos,38.6403,22.5317,Greece,GR,Stereá Elláda,,1125,1125
Foúrnoi,37.5908,26.5022,Greece,GR,Voreío Aigaío,minor,1120,1120
Zonianá,35.2947,24.8308,Greece,GR,Kríti,,1117,1117
Pontokómi,40.4106,21.7619,Greece,GR,Dytikí Makedonía,,1116,1116
Koíla,40.3306,21.7886,Greece,GR,Dytikí Makedonía,,1115,1115
Anéza,39.0867,20.9236,Greece,GR,Ípeiros,,1111,1111
Pétra,39.3269,26.1764,Greece,GR,Voreío Aigaío,,1108,1108
Varvásaina,37.6719,21.4983,Greece,GR,Dytikí Elláda,,1107,1107
Methóni,36.8217,21.7069,Greece,GR,Peloponnísos,,1103,1103
Lávara,41.2667,26.3833,Greece,GR,Anatolikí Makedonía kai Thráki,,1093,1093
Eresós,39.1667,25.9331,Greece,GR,Voreío Aigaío,,1086,1086
Vranás,38.1244,23.9475,Greece,GR,Attikí,,1082,1082
Charakopió,36.8086,21.9133,Greece,GR,Peloponnísos,,1080,1080
Káto Asítes,35.2000,25.0000,Greece,GR,Kríti,,1076,1076
Marathókampos,37.7269,26.6883,Greece,GR,Voreío Aigaío,,1069,1069
Petalídi,36.9500,21.9333,Greece,GR,Peloponnísos,,1065,1065
Andromáchi,40.2719,22.4811,Greece,GR,Kentrikí Makedonía,,1061,1061
Kokkári,37.7758,26.8867,Greece,GR,Voreío Aigaío,,1060,1060
Kastaniés,41.6500,26.4833,Greece,GR,Anatolikí Makedonía kai Thráki,,1059,1059
Stratóni,40.5200,23.8200,Greece,GR,Kentrikí Makedonía,,1057,1057
Astypálaia,36.5475,26.3528,Greece,GR,Notío Aigaío,minor,1055,1055
Kandíla,38.7000,20.9500,Greece,GR,Dytikí Elláda,,1048,1048
Vanáto,37.7930,20.8530,Greece,GR,Ionía Nísia,,1045,1045
Parálio Ástros,37.4167,22.7661,Greece,GR,Peloponnísos,,1043,1043
Sagaíika,38.1000,21.4667,Greece,GR,Dytikí Elláda,,1038,1038
Alfeioúsa,37.6333,21.5333,Greece,GR,Dytikí Elláda,,1037,1037
Néa Stýra,38.1810,24.2080,Greece,GR,Stereá Elláda,,1031,1031
Levídi,37.6833,22.2833,Greece,GR,Peloponnísos,,1025,1025
Tríkeri,39.1003,23.0769,Greece,GR,Thessalía,,1022,1022
Antírrio,38.3306,21.7647,Greece,GR,Dytikí Elláda,,1018,1018
Acharávi,39.7968,19.8111,Greece,GR,Ionía Nísia,,1013,1013
Eleónas,38.3633,23.4428,Greece,GR,Stereá Elláda,,1010,1010
Batsí,37.8586,24.7864,Greece,GR,Notío Aigaío,,1010,1010
Kallíkomo,37.5833,21.5833,Greece,GR,Dytikí Elláda,,1008,1008
Chalandrítsa,38.1167,21.8000,Greece,GR,Dytikí Elláda,minor,913,913
Fillýra,41.1167,25.6333,Greece,GR,Anatolikí Makedonía kai Thráki,minor,909,909
Lidoríki,38.5333,22.2000,Greece,GR,Stereá Elláda,minor,875,875
Nestório,40.4122,21.0617,Greece,GR,Dytikí Makedonía,minor,865,865
Archaía Olympía,37.6443,21.6253,Greece,GR,Dytikí Elláda,minor,835,835
Leipsoí,37.3000,26.7500,Greece,GR,Notío Aigaío,minor,790,790
Mílos,36.7417,24.4292,Greece,GR,Notío Aigaío,minor,749,749
Mandráki,36.6108,27.1367,Greece,GR,Notío Aigaío,minor,660,660
Tzermiádo,35.1983,25.4900,Greece,GR,Kríti,minor,637,637
Kalpáki,39.8861,20.6261,Greece,GR,Ípeiros,minor,625,625
Paranésti,41.2667,24.5014,Greece,GR,Anatolikí Makedonía kai Thráki,minor,625,625
Spíli,35.2189,24.5361,Greece,GR,Kríti,minor,564,564
Megísti,36.1450,29.5850,Greece,GR,Notío Aigaío,minor,492,492
Pezá,35.2178,25.1928,Greece,GR,Kríti,minor,441,441
Sérifos,37.1500,24.5000,Greece,GR,Notío Aigaío,minor,364,364
Dimitsána,37.5952,22.0403,Greece,GR,Peloponnísos,minor,342,342
Vourgaréli,39.3722,21.1817,Greece,GR,Ípeiros,minor,301,301
Kardamýli,36.8867,22.2322,Greece,GR,Peloponnísos,minor,300,300
Kýthira,36.1497,22.9879,Greece,GR,Attikí,minor,281,281
Alónnisos,39.1500,23.8500,Greece,GR,Thessalía,minor,208,208
Síkinos,36.6833,25.1167,Greece,GR,Notío Aigaío,minor,184,184
Kerasochóri,39.0056,21.6378,Greece,GR,Stereá Elláda,minor,174,174
Anthiró,39.3414,21.4539,Greece,GR,Thessalía,minor,167,167
Néa Smýrni,37.9454,23.7146,Greece,GR,Attikí,minor,,
Ampelókipoi,40.6540,22.9175,Greece,GR,Kentrikí Makedonía,minor,,
Dáfni,37.9501,23.7312,Greece,GR,Attikí,minor,,
Ágios Dimítrios,37.9342,23.7291,Greece,GR,Attikí,minor,,
Korydallós,37.9811,23.6514,Greece,GR,Attikí,minor,,
Stavroúpoli,40.6692,22.9310,Greece,GR,Kentrikí Makedonía,minor,,
Kalamariá,40.5789,22.9485,Greece,GR,Kentrikí Makedonía,minor,,
Agía Varvára,37.9883,23.6609,Greece,GR,Attikí,minor,,
Aigáleo,37.9925,23.6781,Greece,GR,Attikí,minor,,
Irákleio,38.0540,23.7745,Greece,GR,Attikí,minor,,
Ágioi Anárgyroi,38.0324,23.7247,Greece,GR,Attikí,minor,,
Ílion,38.0323,23.7022,Greece,GR,Attikí,minor,,
Keratsíni,37.9643,23.6199,Greece,GR,Attikí,minor,,
Moscháto,37.9540,23.6815,Greece,GR,Attikí,minor,,
Zográfos,37.9757,23.7691,Greece,GR,Attikí,minor,,
Petroúpoli,38.0396,23.6812,Greece,GR,Attikí,minor,,
Cholargós,38.0010,23.8008,Greece,GR,Attikí,minor,,
Sykiés,40.6474,22.9563,Greece,GR,Kentrikí Makedonía,minor,,
Évosmos,40.6698,22.9088,Greece,GR,Kentrikí Makedonía,minor,,
Álimos,37.9143,23.7159,Greece,GR,Attikí,minor,,
Ilioúpoli,37.9302,23.7514,Greece,GR,Attikí,minor,,
Melíssia,38.0512,23.8362,Greece,GR,Attikí,minor,,
Metamórfosi,38.0639,23.7618,Greece,GR,Attikí,minor,,
Maroúsi,38.0537,23.8077,Greece,GR,Attikí,minor,,
Argyroúpoli,37.9062,23.7507,Greece,GR,Attikí,minor,,
Gérakas,38.0133,23.8560,Greece,GR,Attikí,minor,,
Voúla,37.8459,23.7626,Greece,GR,Attikí,minor,,
Peraía,40.4990,22.9262,Greece,GR,Kentrikí Makedonía,minor,,
Zákynthos,37.8000,20.7500,Greece,GR,Ionía Nísia,minor,,
Kifisiá,38.0767,23.8208,Greece,GR,Attikí,minor,,
Pérama,37.9662,23.5739,Greece,GR,Attikí,minor,,
Ágios Stéfanos,38.1408,23.8591,Greece,GR,Attikí,minor,,
Aígio,38.2527,22.0820,Greece,GR,Dytikí Elláda,minor,,
Oraiókastro,40.7296,22.9165,Greece,GR,Kentrikí Makedonía,minor,,
Acharnés,38.0847,23.7372,Greece,GR,Attikí,minor,,
Áno Liósia,38.0840,23.7023,Greece,GR,Attikí,minor,,
Panórama,40.5853,23.0281,Greece,GR,Kentrikí Makedonía,minor,,
Árta,39.1601,20.9856,Greece,GR,Ípeiros,minor,,
Gázi,35.3252,25.0662,Greece,GR,Kríti,minor,,
Rafína,38.0232,24.0026,Greece,GR,Attikí,minor,,
Flórina,40.7807,21.4093,Greece,GR,Dytikí Makedonía,minor,,
Ágios Nikólaos,35.1911,25.7152,Greece,GR,Kríti,minor,,
Náxos,37.1021,25.3780,Greece,GR,Notío Aigaío,minor,,
Ptolemaḯda,40.5121,21.6780,Greece,GR,Dytikí Makedonía,minor,,
Édessa,40.8026,22.0475,Greece,GR,Kentrikí Makedonía,minor,,
Árgos,37.6350,22.7285,Greece,GR,Peloponnísos,minor,,
Zevgolatió,38.0815,22.6193,Greece,GR,Peloponnísos,minor,,
Moíres,35.0517,24.8750,Greece,GR,Kríti,minor,,
Pérama,35.3695,24.7039,Greece,GR,Kríti,minor,,
Igoumenítsa,39.5034,20.2673,Greece,GR,Ípeiros,minor,,
Gastoúni,37.8506,21.2534,Greece,GR,Dytikí Elláda,minor,,
Goúrnes,35.3248,25.2776,Greece,GR,Kríti,minor,,
Eleoúsa,39.7059,20.7928,Greece,GR,Ípeiros,minor,,
Asprópyrgos,38.0617,23.5894,Greece,GR,Attikí,minor,,
Amaliáda,37.7972,21.3495,Greece,GR,Dytikí Elláda,minor,,
Koropí,37.9009,23.8723,Greece,GR,Attikí,minor,,
Irákleia,41.1823,23.2822,Greece,GR,Kentrikí Makedonía,minor,,
Árgos Orestikó,40.4525,21.2592,Greece,GR,Dytikí Makedonía,minor,,
Markópoulo,37.8833,23.9333,Greece,GR,Attikí,minor,,
Ierápetra,35.0056,25.7333,Greece,GR,Kríti,minor,,
Grevená,40.0840,21.4291,Greece,GR,Dytikí Makedonía,minor,,
Kalývia Thorikoú,37.8391,23.9276,Greece,GR,Attikí,minor,,
Geráni,35.5168,23.8780,Greece,GR,Kríti,minor,,
Mouzáki,39.4288,21.6629,Greece,GR,Thessalía,minor,,
Ándros,37.8362,24.9352,Greece,GR,Notío Aigaío,minor,,
Kárystos,38.0165,24.4204,Greece,GR,Stereá Elláda,minor,,
Firá,36.4102,25.4056,Greece,GR,Notío Aigaío,minor,,
Stylída,38.9144,22.6138,Greece,GR,Stereá Elláda,minor,,
Oropós,38.3195,23.7900,Greece,GR,Attikí,minor,,
Agiá,39.7188,22.7555,Greece,GR,Thessalía,minor,,
Mesolóngi,38.3714,21.4315,Greece,GR,Dytikí Elláda,minor,,
Palamás,39.4644,22.0825,Greece,GR,Thessalía,minor,,
Ámfissa,38.5281,22.3771,Greece,GR,Stereá Elláda,minor,,
Loutráki,37.9750,22.9798,Greece,GR,Peloponnísos,minor,,
Erétria,38.3971,23.7902,Greece,GR,Stereá Elláda,minor,,
Péta,39.1677,21.0351,Greece,GR,Ípeiros,minor,,
Sofádes,39.3344,22.0973,Greece,GR,Thessalía,minor,,
Eleftheroúpoli,40.9149,24.2542,Greece,GR,Anatolikí Makedonía kai Thráki,minor,,
Páros,37.0844,25.1483,Greece,GR,Notío Aigaío,minor,,
Agía Marína,37.1467,26.8419,Greece,GR,Notío Aigaío,minor,,
Náousa,40.6300,22.0684,Greece,GR,Kentrikí Makedonía,minor,,
Évlalo,40.9812,24.8001,Greece,GR,Anatolikí Makedonía kai Thráki,minor,,
Pýli,39.4596,21.6221,Greece,GR,Thessalía,minor,,
Gáios,39.1961,20.1858,Greece,GR,Ionía Nísia,minor,,
Póros,37.5167,23.4667,Greece,GR,Attikí,minor,,
Chrysó,41.0584,23.6514,Greece,GR,Kentrikí Makedonía,minor,,
Sérvia,40.1844,22.0005,Greece,GR,Dytikí Makedonía,minor,,
Agkístri,37.7096,23.3472,Greece,GR,Attikí,minor,,
Farkadóna,39.5913,22.0686,Greece,GR,Thessalía,minor,,
Pátmos,37.3086,26.5474,Greece,GR,Notío Aigaío,minor,,
Níkaia,39.5667,22.4667,Greece,GR,Thessalía,minor,,
Mándra,38.0747,23.4969,Greece,GR,Attikí,minor,,
Smínthi,41.2289,24.8804,Greece,GR,Anatolikí Makedonía kai Thráki,minor,,
Atalánti,38.6540,22.9970,Greece,GR,Stereá Elláda,minor,,
Ágioi Déka,35.0582,24.9602,Greece,GR,Kríti,minor,,
Néa Zíchni,41.0312,23.8289,Greece,GR,Kentrikí Makedonía,minor,,
Elafónisos,36.5090,22.9787,Greece,GR,Peloponnísos,minor,,
Sidirókastro,41.2361,23.3925,Greece,GR,Kentrikí Makedonía,minor,,
Oinoússes,38.5158,26.2225,Greece,GR,Voreío Aigaío,minor,,
Prámanta,39.5220,21.0986,Greece,GR,Ípeiros,minor,,
Rodolívos,40.9211,23.9746,Greece,GR,Kentrikí Makedonía,minor,,
Áno Viánnos,35.0539,25.4100,Greece,GR,Kríti,minor,,
Palaióchora,35.2313,23.6813,Greece,GR,Kríti,minor,,
Apollonía,36.9744,24.7240,Greece,GR,Notío Aigaío,minor,,
Agía Kyriakí,39.5226,20.8836,Greece,GR,Ípeiros,minor,,
Ýdra,37.3469,23.4657,Greece,GR,Attikí,minor,,
Asklipieío,37.5975,23.0747,Greece,GR,Peloponnísos,minor,,
Íasmos,41.1279,25.1844,Greece,GR,Anatolikí Makedonía kai Thráki,minor,,
Deskáti,39.9253,21.8102,Greece,GR,Dytikí Makedonía,minor,,
Agía Foteiní,35.2542,24.6342,Greece,GR,Kríti,minor,,
Folégandros,36.6222,24.9014,Greece,GR,Notío Aigaío,minor,,
Vrýses,35.4545,23.6004,Greece,GR,Kríti,minor,,
Antíparos,37.0404,25.0819,Greece,GR,Notío Aigaío,minor,,
Anógeia,35.2907,24.8834,Greece,GR,Kríti,minor,,
Morfovoúni,39.3525,21.7504,Greece,GR,Thessalía,minor,,
Íos,36.7233,25.2825,Greece,GR,Notío Aigaío,minor,,
Kímolos,36.8000,24.5500,Greece,GR,Notío Aigaío,minor,,
Samothráki,40.4743,25.5251,Greece,GR,Anatolikí Makedonía kai Thráki,minor,,
Frý,35.4162,26.9231,Greece,GR,Notío Aigaío,minor,,
Kýthnos,37.3833,24.4167,Greece,GR,Notío Aigaío,minor,,
Ioulída,37.6397,24.3423,Greece,GR,Notío Aigaío,minor,,
Chálki,36.2226,27.6113,Greece,GR,Notío Aigaío,minor,,
Megálo Chorió,37.4578,26.9724,Greece,GR,Notío Aigaío,minor,,
Asprángeloi,39.8226,20.7276,Greece,GR,Ípeiros,minor,,
Amorgós,36.8318,25.8983,Greece,GR,Notío Aigaío,minor,,
Áno Kalentíni,39.2515,21.1679,Greece,GR,Ípeiros,minor,,
Psará,38.5414,25.5630,Greece,GR,Voreío Aigaío,minor,,
Laimós,40.8359,21.1404,Greece,GR,Dytikí Makedonía,minor,,
Megálo Chorió,36.4551,27.3469,Greece,GR,Notío Aigaío,minor,,
Anáfi,36.3509,25.7671,Greece,GR,Notío Aigaío,minor,,
Ágios Efstrátios,39.5391,24.9904,Greece,GR,Voreío Aigaío,minor,,
Chóra Sfakíon,35.2018,24.1398,Greece,GR,Kríti,minor,,
Kastrí,34.8345,24.0864,Greece,GR,Kríti,minor,,
